{"type": "FeatureCollection", "features": [{"type": "Feature", "geometry": {"type": "Point", "coordinates": [-117.30003, 34.12038]}, "properties": {"name": "San Bernardino", "sov_a3": "USA", "latitude": 34.12038, "longitude": -117.30003, "pop_max": 1745000, "region": "West"}}, {"type": "Feature", "geometry": {"type": "Point", "coordinates": [-73.19996, 41.17998]}, "properties": {"name": "Bridgeport", "sov_a3": "USA", "latitude": 41.17998, "longitude": -73.19996, "pop_max": 1018000, "region": "Northeast"}}, {"type": "Feature", "geometry": {"type": "Point", "coordinates": [-77.61995, 43.17043]}, "properties": {"name": "Rochester", "sov_a3": "USA", "latitude": 43.17043, "longitude": -77.61995, "pop_max": 755000, "region": "Northeast"}}, {"type": "Feature", "geometry": {"type": "Point", "coordinates": [-93.08497, 44.94399]}, "properties": {"name": "St. Paul", "sov_a3": "USA", "latitude": 44.94399, "longitude": -93.08497, "pop_max": 734854, "region": "Midwest"}}, {"type": "Feature", "geometry": {"type": "Point", "coordinates": [-108.54, 45.7883]}, "properties": {"name": "Billings", "sov_a3": "USA", "latitude": 45.7883, "longitude": -108.54, "pop_max": 104552, "region": "West"}}, {"type": "Feature", "geometry": {"type": "Point", "coordinates": [-111.29999, 47.50029]}, "properties": {"name": "Great Falls", "sov_a3": "USA", "latitude": 47.50029, "longitude": -111.29999, "pop_max": 66558, "region": "West"}}, {"type": "Feature", "geometry": {"type": "Point", "coordinates": [-113.99305, 46.87224]}, "properties": {"name": "Missoula", "sov_a3": "USA", "latitude": 46.87224, "longitude": -113.99305, "pop_max": 72856, "region": "West"}}, {"type": "Feature", "geometry": {"type": "Point", "coordinates": [-101.29582, 48.23249]}, "properties": {"name": "Minot", "sov_a3": "USA", "latitude": 48.23249, "longitude": -101.29582, "pop_max": 39439, "region": "Midwest"}}, {"type": "Feature", "geometry": {"type": "Point", "coordinates": [-96.78943, 46.87723]}, "properties": {"name": "Fargo", "sov_a3": "USA", "latitude": 46.87723, "longitude": -96.78943, "pop_max": 162842, "region": "Midwest"}}, {"type": "Feature", "geometry": {"type": "Point", "coordinates": [-155.09003, 19.7]}, "properties": {"name": "Hilo", "sov_a3": "USA", "latitude": 19.7, "longitude": -155.09003, "pop_max": 52391, "region": "West"}}, {"type": "Feature", "geometry": {"type": "Point", "coordinates": [-122.89943, 47.03804]}, "properties": {"name": "Olympia", "sov_a3": "USA", "latitude": 47.03804, "longitude": -122.89943, "pop_max": 156984, "region": "West"}}, {"type": "Feature", "geometry": {"type": "Point", "coordinates": [-117.41995, 47.67]}, "properties": {"name": "Spokane", "sov_a3": "USA", "latitude": 47.67, "longitude": -117.41995, "pop_max": 347705, "region": "West"}}, {"type": "Feature", "geometry": {"type": "Point", "coordinates": [-122.63999, 45.6303]}, "properties": {"name": "Vancouver", "sov_a3": "USA", "latitude": 45.6303, "longitude": -122.63999, "pop_max": 525802, "region": "West"}}, {"type": "Feature", "geometry": {"type": "Point", "coordinates": [-111.65051, 35.1981]}, "properties": {"name": "Flagstaff", "sov_a3": "USA", "latitude": 35.1981, "longitude": -111.65051, "pop_max": 63993, "region": "West"}}, {"type": "Feature", "geometry": {"type": "Point", "coordinates": [-110.88999, 32.205]}, "properties": {"name": "Tucson", "sov_a3": "USA", "latitude": 32.205, "longitude": -110.88999, "pop_max": 823000, "region": "West"}}, {"type": "Feature", "geometry": {"type": "Point", "coordinates": [-119.71999, 34.43499]}, "properties": {"name": "Santa Barbara", "sov_a3": "USA", "latitude": 34.43499, "longitude": -119.71999, "pop_max": 181632, "region": "West"}}, {"type": "Feature", "geometry": {"type": "Point", "coordinates": [-119.77298, 36.74772]}, "properties": {"name": "Fresno", "sov_a3": "USA", "latitude": 36.74772, "longitude": -119.77298, "pop_max": 616353, "region": "West"}}, {"type": "Feature", "geometry": {"type": "Point", "coordinates": [-124.1475, 40.80222]}, "properties": {"name": "Eureka", "sov_a3": "USA", "latitude": 40.80222, "longitude": -124.1475, "pop_max": 42398, "region": "West"}}, {"type": "Feature", "geometry": {"type": "Point", "coordinates": [-104.79199, 38.86296]}, "properties": {"name": "Colorado Springs", "sov_a3": "USA", "latitude": 38.86296, "longitude": -104.79199, "pop_max": 493654, "region": "West"}}, {"type": "Feature", "geometry": {"type": "Point", "coordinates": [-119.82001, 39.52998]}, "properties": {"name": "Reno", "sov_a3": "USA", "latitude": 39.52998, "longitude": -119.82001, "pop_max": 328585, "region": "West"}}, {"type": "Feature", "geometry": {"type": "Point", "coordinates": [-115.76199, 40.83251]}, "properties": {"name": "Elko", "sov_a3": "USA", "latitude": 40.83251, "longitude": -115.76199, "pop_max": 19252, "region": "West"}}, {"type": "Feature", "geometry": {"type": "Point", "coordinates": [-106.64133, 35.10497]}, "properties": {"name": "Albuquerque", "sov_a3": "USA", "latitude": 35.10497, "longitude": -106.64133, "pop_max": 898642, "region": "West"}}, {"type": "Feature", "geometry": {"type": "Point", "coordinates": [-123.0239, 44.92807]}, "properties": {"name": "Salem", "sov_a3": "USA", "latitude": 44.92807, "longitude": -123.0239, "pop_max": 229010, "region": "West"}}, {"type": "Feature", "geometry": {"type": "Point", "coordinates": [-106.31249, 42.86662]}, "properties": {"name": "Casper", "sov_a3": "USA", "latitude": 42.86662, "longitude": -106.31249, "pop_max": 60791, "region": "West"}}, {"type": "Feature", "geometry": {"type": "Point", "coordinates": [-95.66998, 39.05001]}, "properties": {"name": "Topeka", "sov_a3": "USA", "latitude": 39.05001, "longitude": -95.66998, "pop_max": 132091, "region": "Midwest"}}, {"type": "Feature", "geometry": {"type": "Point", "coordinates": [-94.60409, 39.10709]}, "properties": {"name": "Kansas City", "sov_a3": "USA", "latitude": 39.10709, "longitude": -94.60409, "pop_max": 1469000, "region": "Midwest"}}, {"type": "Feature", "geometry": {"type": "Point", "coordinates": [-95.93002, 36.12]}, "properties": {"name": "Tulsa", "sov_a3": "USA", "latitude": 36.12, "longitude": -95.93002, "pop_max": 946962, "region": "South"}}, {"type": "Feature", "geometry": {"type": "Point", "coordinates": [-96.73, 43.54999]}, "properties": {"name": "Sioux Falls", "sov_a3": "USA", "latitude": 43.54999, "longitude": -96.73, "pop_max": 155724, "region": "Midwest"}}, {"type": "Feature", "geometry": {"type": "Point", "coordinates": [-93.77002, 32.50002]}, "properties": {"name": "Shreveport", "sov_a3": "USA", "latitude": 32.50002, "longitude": -93.77002, "pop_max": 248053, "region": "South"}}, {"type": "Feature", "geometry": {"type": "Point", "coordinates": [-91.14016, 30.45795]}, "properties": {"name": "Baton Rouge", "sov_a3": "USA", "latitude": 30.45795, "longitude": -91.14016, "pop_max": 422072, "region": "South"}}, {"type": "Feature", "geometry": {"type": "Point", "coordinates": [-97.34004, 32.73998]}, "properties": {"name": "Ft. Worth", "sov_a3": "USA", "latitude": 32.73998, "longitude": -97.34004, "pop_max": 1440454, "region": "South"}}, {"type": "Feature", "geometry": {"type": "Point", "coordinates": [-97.40189, 27.74281]}, "properties": {"name": "Corpus Christi", "sov_a3": "USA", "latitude": 27.74281, "longitude": -97.40189, "pop_max": 277454, "region": "South"}}, {"type": "Feature", "geometry": {"type": "Point", "coordinates": [-97.74278, 30.26695]}, "properties": {"name": "Austin", "sov_a3": "USA", "latitude": 30.26695, "longitude": -97.74278, "pop_max": 1161000, "region": "South"}}, {"type": "Feature", "geometry": {"type": "Point", "coordinates": [-101.83, 35.22998]}, "properties": {"name": "Amarillo", "sov_a3": "USA", "latitude": 35.22998, "longitude": -101.83, "pop_max": 181766, "region": "South"}}, {"type": "Feature", "geometry": {"type": "Point", "coordinates": [-106.51, 31.77998]}, "properties": {"name": "El Paso", "sov_a3": "USA", "latitude": 31.77998, "longitude": -106.51, "pop_max": 753000, "region": "South"}}, {"type": "Feature", "geometry": {"type": "Point", "coordinates": [-99.50722, 27.50614]}, "properties": {"name": "Laredo", "sov_a3": "USA", "latitude": 27.50614, "longitude": -99.50722, "pop_max": 434768, "region": "South"}}, {"type": "Feature", "geometry": {"type": "Point", "coordinates": [-73.21247, 44.4758]}, "properties": {"name": "Burlington", "sov_a3": "USA", "latitude": 44.4758, "longitude": -73.21247, "pop_max": 93807, "region": "Northeast"}}, {"type": "Feature", "geometry": {"type": "Point", "coordinates": [-86.27919, 32.3616]}, "properties": {"name": "Montgomery", "sov_a3": "USA", "latitude": 32.3616, "longitude": -86.27919, "pop_max": 198325, "region": "South"}}, {"type": "Feature", "geometry": {"type": "Point", "coordinates": [-84.28003, 30.44999]}, "properties": {"name": "Tallahassee", "sov_a3": "USA", "latitude": 30.44999, "longitude": -84.28003, "pop_max": 221222, "region": "South"}}, {"type": "Feature", "geometry": {"type": "Point", "coordinates": [-81.38003, 28.50998]}, "properties": {"name": "Orlando", "sov_a3": "USA", "latitude": 28.50998, "longitude": -81.38003, "pop_max": 1350000, "region": "South"}}, {"type": "Feature", "geometry": {"type": "Point", "coordinates": [-81.66999, 30.33002]}, "properties": {"name": "Jacksonville", "sov_a3": "USA", "latitude": 30.33002, "longitude": -81.66999, "pop_max": 988000, "region": "South"}}, {"type": "Feature", "geometry": {"type": "Point", "coordinates": [-81.11, 32.02111]}, "properties": {"name": "Savannah", "sov_a3": "USA", "latitude": 32.02111, "longitude": -81.11, "pop_max": 180187, "region": "South"}}, {"type": "Feature", "geometry": {"type": "Point", "coordinates": [-80.89998, 34.03998]}, "properties": {"name": "Columbia", "sov_a3": "USA", "latitude": 34.03998, "longitude": -80.89998, "pop_max": 398093, "region": "South"}}, {"type": "Feature", "geometry": {"type": "Point", "coordinates": [-86.17005, 39.74999]}, "properties": {"name": "Indianapolis", "sov_a3": "USA", "latitude": 39.74999, "longitude": -86.17005, "pop_max": 1436000, "region": "Midwest"}}, {"type": "Feature", "geometry": {"type": "Point", "coordinates": [-77.94502, 34.22552]}, "properties": {"name": "Wilmington", "sov_a3": "USA", "latitude": 34.22552, "longitude": -77.94502, "pop_max": 161560, "region": "South"}}, {"type": "Feature", "geometry": {"type": "Point", "coordinates": [-83.92003, 35.97001]}, "properties": {"name": "Knoxville", "sov_a3": "USA", "latitude": 35.97001, "longitude": -83.92003, "pop_max": 655400, "region": "South"}}, {"type": "Feature", "geometry": {"type": "Point", "coordinates": [-77.44999, 37.55002]}, "properties": {"name": "Richmond", "sov_a3": "USA", "latitude": 37.55002, "longitude": -77.44999, "pop_max": 912000, "region": "South"}}, {"type": "Feature", "geometry": {"type": "Point", "coordinates": [-81.63273, 38.34974]}, "properties": {"name": "Charleston", "sov_a3": "USA", "latitude": 38.34974, "longitude": -81.63273, "pop_max": 123799, "region": "South"}}, {"type": "Feature", "geometry": {"type": "Point", "coordinates": [-76.61998, 39.29999]}, "properties": {"name": "Baltimore", "sov_a3": "USA", "latitude": 39.29999, "longitude": -76.61998, "pop_max": 2255000, "region": "South"}}, {"type": "Feature", "geometry": {"type": "Point", "coordinates": [-76.15001, 43.04999]}, "properties": {"name": "Syracuse", "sov_a3": "USA", "latitude": 43.04999, "longitude": -76.15001, "pop_max": 662577, "region": "Northeast"}}, {"type": "Feature", "geometry": {"type": "Point", "coordinates": [-69.77999, 44.31056]}, "properties": {"name": "Augusta", "sov_a3": "USA", "latitude": 44.31056, "longitude": -69.77999, "pop_max": 24042, "region": "Northeast"}}, {"type": "Feature", "geometry": {"type": "Point", "coordinates": [-84.34528, 46.49526]}, "properties": {"name": "Sault Ste. Marie", "sov_a3": "USA", "latitude": 46.49526, "longitude": -84.34528, "pop_max": 83805, "region": "Midwest"}}, {"type": "Feature", "geometry": {"type": "Point", "coordinates": [-135.32755, 57.0604]}, "properties": {"name": "Sitka", "sov_a3": "USA", "latitude": 57.0604, "longitude": -135.32755, "pop_max": 8931, "region": "West"}}, {"type": "Feature", "geometry": {"type": "Point", "coordinates": [-112.03529, 46.59275]}, "properties": {"name": "Helena", "sov_a3": "USA", "latitude": 46.59275, "longitude": -112.03529, "pop_max": 38725, "region": "West"}}, {"type": "Feature", "geometry": {"type": "Point", "coordinates": [-100.78332, 46.80832]}, "properties": {"name": "Bismarck", "sov_a3": "USA", "latitude": 46.80832, "longitude": -100.78332, "pop_max": 63871, "region": "Midwest"}}, {"type": "Feature", "geometry": {"type": "Point", "coordinates": [-116.22749, 43.60859]}, "properties": {"name": "Boise", "sov_a3": "USA", "latitude": 43.60859, "longitude": -116.22749, "pop_max": 338071, "region": "West"}}, {"type": "Feature", "geometry": {"type": "Point", "coordinates": [-121.84999, 37.29998]}, "properties": {"name": "San Jose", "sov_a3": "USA", "latitude": 37.29998, "longitude": -121.84999, "pop_max": 1668000, "region": "West"}}, {"type": "Feature", "geometry": {"type": "Point", "coordinates": [-121.47004, 38.57502]}, "properties": {"name": "Sacramento", "sov_a3": "USA", "latitude": 38.57502, "longitude": -121.47004, "pop_max": 1604000, "region": "West"}}, {"type": "Feature", "geometry": {"type": "Point", "coordinates": [-115.22001, 36.21]}, "properties": {"name": "Las Vegas", "sov_a3": "USA", "latitude": 36.21, "longitude": -115.22001, "pop_max": 1823000, "region": "West"}}, {"type": "Feature", "geometry": {"type": "Point", "coordinates": [-105.93724, 35.68693]}, "properties": {"name": "Santa Fe", "sov_a3": "USA", "latitude": 35.68693, "longitude": -105.93724, "pop_max": 92681, "region": "West"}}, {"type": "Feature", "geometry": {"type": "Point", "coordinates": [-122.67999, 45.52002]}, "properties": {"name": "Portland", "sov_a3": "USA", "latitude": 45.52002, "longitude": -122.67999, "pop_max": 1875000, "region": "West"}}, {"type": "Feature", "geometry": {"type": "Point", "coordinates": [-111.93005, 40.77502]}, "properties": {"name": "Salt Lake City", "sov_a3": "USA", "latitude": 40.77502, "longitude": -111.93005, "pop_max": 966000, "region": "West"}}, {"type": "Feature", "geometry": {"type": "Point", "coordinates": [-104.81971, 41.14001]}, "properties": {"name": "Cheyenne", "sov_a3": "USA", "latitude": 41.14001, "longitude": -104.81971, "pop_max": 72927, "region": "West"}}, {"type": "Feature", "geometry": {"type": "Point", "coordinates": [-93.61998, 41.57998]}, "properties": {"name": "Des Moines", "sov_a3": "USA", "latitude": 41.57998, "longitude": -93.61998, "pop_max": 380655, "region": "Midwest"}}, {"type": "Feature", "geometry": {"type": "Point", "coordinates": [-96.00999, 41.24]}, "properties": {"name": "Omaha", "sov_a3": "USA", "latitude": 41.24, "longitude": -96.00999, "pop_max": 877110, "region": "Midwest"}}, {"type": "Feature", "geometry": {"type": "Point", "coordinates": [-97.51868, 35.47004]}, "properties": {"name": "Oklahoma City", "sov_a3": "USA", "latitude": 35.47004, "longitude": -97.51868, "pop_max": 788000, "region": "South"}}, {"type": "Feature", "geometry": {"type": "Point", "coordinates": [-100.35055, 44.36834]}, "properties": {"name": "Pierre", "sov_a3": "USA", "latitude": 44.36834, "longitude": -100.35055, "pop_max": 13879, "region": "Midwest"}}, {"type": "Feature", "geometry": {"type": "Point", "coordinates": [-98.50731, 29.48733]}, "properties": {"name": "San Antonio", "sov_a3": "USA", "latitude": 29.48733, "longitude": -98.50731, "pop_max": 1473000, "region": "South"}}, {"type": "Feature", "geometry": {"type": "Point", "coordinates": [-90.185, 32.29882]}, "properties": {"name": "Jackson", "sov_a3": "USA", "latitude": 32.29882, "longitude": -90.185, "pop_max": 250902, "region": "South"}}, {"type": "Feature", "geometry": {"type": "Point", "coordinates": [-78.64469, 35.81878]}, "properties": {"name": "Raleigh", "sov_a3": "USA", "latitude": 35.81878, "longitude": -78.64469, "pop_max": 1163515, "region": "South"}}, {"type": "Feature", "geometry": {"type": "Point", "coordinates": [-81.695, 41.46999]}, "properties": {"name": "Cleveland", "sov_a3": "USA", "latitude": 41.46999, "longitude": -81.695, "pop_max": 1890000, "region": "Midwest"}}, {"type": "Feature", "geometry": {"type": "Point", "coordinates": [-84.45692, 39.16188]}, "properties": {"name": "Cincinnati", "sov_a3": "USA", "latitude": 39.16188, "longitude": -84.45692, "pop_max": 1636000, "region": "Midwest"}}, {"type": "Feature", "geometry": {"type": "Point", "coordinates": [-86.77998, 36.16997]}, "properties": {"name": "Nashville", "sov_a3": "USA", "latitude": 36.16997, "longitude": -86.77998, "pop_max": 877000, "region": "South"}}, {"type": "Feature", "geometry": {"type": "Point", "coordinates": [-90.0, 35.11999]}, "properties": {"name": "Memphis", "sov_a3": "USA", "latitude": 35.11999, "longitude": -90.0, "pop_max": 1081000, "region": "South"}}, {"type": "Feature", "geometry": {"type": "Point", "coordinates": [-76.28001, 36.84996]}, "properties": {"name": "Norfolk", "sov_a3": "USA", "latitude": 36.84996, "longitude": -76.28001, "pop_max": 1047869, "region": "South"}}, {"type": "Feature", "geometry": {"type": "Point", "coordinates": [-87.91997, 43.05266]}, "properties": {"name": "Milwaukee", "sov_a3": "USA", "latitude": 43.05266, "longitude": -87.91997, "pop_max": 1388000, "region": "Midwest"}}, {"type": "Feature", "geometry": {"type": "Point", "coordinates": [-78.88, 42.87998]}, "properties": {"name": "Buffalo", "sov_a3": "USA", "latitude": 42.87998, "longitude": -78.88, "pop_max": 1016000, "region": "Northeast"}}, {"type": "Feature", "geometry": {"type": "Point", "coordinates": [-79.99999, 40.43]}, "properties": {"name": "Pittsburgh", "sov_a3": "USA", "latitude": 40.43, "longitude": -79.99999, "pop_max": 1838000, "region": "Northeast"}}, {"type": "Feature", "geometry": {"type": "Point", "coordinates": [-152.40699, 57.79]}, "properties": {"name": "Kodiak", "sov_a3": "USA", "latitude": 57.79, "longitude": -152.40699, "pop_max": 9461, "region": "West"}}, {"type": "Feature", "geometry": {"type": "Point", "coordinates": [-162.71509, 55.2]}, "properties": {"name": "Cold Bay", "sov_a3": "USA", "latitude": 55.2, "longitude": -162.71509, "pop_max": 200, "region": "West"}}, {"type": "Feature", "geometry": {"type": "Point", "coordinates": [-161.7558, 60.7933]}, "properties": {"name": "Bethel", "sov_a3": "USA", "latitude": 60.7933, "longitude": -161.7558, "pop_max": 6228, "region": "West"}}, {"type": "Feature", "geometry": {"type": "Point", "coordinates": [-156.78858, 71.29057]}, "properties": {"name": "Barrow", "sov_a3": "USA", "latitude": 71.29057, "longitude": -156.78858, "pop_max": 4336, "region": "West"}}, {"type": "Feature", "geometry": {"type": "Point", "coordinates": [-165.40637, 64.5061]}, "properties": {"name": "Nome", "sov_a3": "USA", "latitude": 64.5061, "longitude": -165.40637, "pop_max": 3485, "region": "West"}}, {"type": "Feature", "geometry": {"type": "Point", "coordinates": [-146.34829, 61.136]}, "properties": {"name": "Valdez", "sov_a3": "USA", "latitude": 61.136, "longitude": -146.34829, "pop_max": 4036, "region": "West"}}, {"type": "Feature", "geometry": {"type": "Point", "coordinates": [-134.42, 58.31413]}, "properties": {"name": "Juneau", "sov_a3": "USA", "latitude": 58.31413, "longitude": -134.42, "pop_max": 30711, "region": "West"}}, {"type": "Feature", "geometry": {"type": "Point", "coordinates": [-147.71066, 64.83698]}, "properties": {"name": "Fairbanks", "sov_a3": "USA", "latitude": 64.83698, "longitude": -147.71066, "pop_max": 56993, "region": "West"}}, {"type": "Feature", "geometry": {"type": "Point", "coordinates": [-148.66936, 70.29218]}, "properties": {"name": "Prudhoe Bay", "sov_a3": "USA", "latitude": 70.29218, "longitude": -148.66936, "pop_max": 2500, "region": "West"}}, {"type": "Feature", "geometry": {"type": "Point", "coordinates": [-93.25179, 44.97998]}, "properties": {"name": "Minneapolis", "sov_a3": "USA", "latitude": 44.97998, "longitude": -93.25179, "pop_max": 2616000, "region": "Midwest"}}, {"type": "Feature", "geometry": {"type": "Point", "coordinates": [-157.858, 21.30688]}, "properties": {"name": "Honolulu", "sov_a3": "USA", "latitude": 21.30688, "longitude": -157.858, "pop_max": 786000, "region": "West"}}, {"type": "Feature", "geometry": {"type": "Point", "coordinates": [-122.33998, 47.57]}, "properties": {"name": "Seattle", "sov_a3": "USA", "latitude": 47.57, "longitude": -122.33998, "pop_max": 3074000, "region": "West"}}, {"type": "Feature", "geometry": {"type": "Point", "coordinates": [-112.06999, 33.53998]}, "properties": {"name": "Phoenix", "sov_a3": "USA", "latitude": 33.53998, "longitude": -112.06999, "pop_max": 3551000, "region": "West"}}, {"type": "Feature", "geometry": {"type": "Point", "coordinates": [-117.17999, 32.82002]}, "properties": {"name": "San Diego", "sov_a3": "USA", "latitude": 32.82002, "longitude": -117.17999, "pop_max": 2916000, "region": "West"}}, {"type": "Feature", "geometry": {"type": "Point", "coordinates": [-90.23998, 38.63502]}, "properties": {"name": "St. Louis", "sov_a3": "USA", "latitude": 38.63502, "longitude": -90.23998, "pop_max": 2199000, "region": "Midwest"}}, {"type": "Feature", "geometry": {"type": "Point", "coordinates": [-90.03997, 29.995]}, "properties": {"name": "New Orleans", "sov_a3": "USA", "latitude": 29.995, "longitude": -90.03997, "pop_max": 785000, "region": "South"}}, {"type": "Feature", "geometry": {"type": "Point", "coordinates": [-96.84002, 32.82002]}, "properties": {"name": "Dallas", "sov_a3": "USA", "latitude": 32.82002, "longitude": -96.84002, "pop_max": 4798000, "region": "South"}}, {"type": "Feature", "geometry": {"type": "Point", "coordinates": [-71.07001, 42.32996]}, "properties": {"name": "Boston", "sov_a3": "USA", "latitude": 42.32996, "longitude": -71.07001, "pop_max": 4467000, "region": "Northeast"}}, {"type": "Feature", "geometry": {"type": "Point", "coordinates": [-82.45862, 27.94699]}, "properties": {"name": "Tampa", "sov_a3": "USA", "latitude": 27.94699, "longitude": -82.45862, "pop_max": 2314000, "region": "South"}}, {"type": "Feature", "geometry": {"type": "Point", "coordinates": [-75.17, 39.99997]}, "properties": {"name": "Philadelphia", "sov_a3": "USA", "latitude": 39.99997, "longitude": -75.17, "pop_max": 5492000, "region": "Northeast"}}, {"type": "Feature", "geometry": {"type": "Point", "coordinates": [-83.08006, 42.32996]}, "properties": {"name": "Detroit", "sov_a3": "USA", "latitude": 42.32996, "longitude": -83.08006, "pop_max": 4101000, "region": "Midwest"}}, {"type": "Feature", "geometry": {"type": "Point", "coordinates": [-149.90021, 61.21997]}, "properties": {"name": "Anchorage", "sov_a3": "USA", "latitude": 61.21997, "longitude": -149.90021, "pop_max": 260283, "region": "West"}}, {"type": "Feature", "geometry": {"type": "Point", "coordinates": [-122.45998, 37.74001]}, "properties": {"name": "San Francisco", "sov_a3": "USA", "latitude": 37.74001, "longitude": -122.45998, "pop_max": 3450000, "region": "West"}}, {"type": "Feature", "geometry": {"type": "Point", "coordinates": [-104.98402, 39.73919]}, "properties": {"name": "Denver", "sov_a3": "USA", "latitude": 39.73919, "longitude": -104.98402, "pop_max": 2313000, "region": "West"}}, {"type": "Feature", "geometry": {"type": "Point", "coordinates": [-95.33998, 29.81997]}, "properties": {"name": "Houston", "sov_a3": "USA", "latitude": 29.81997, "longitude": -95.33998, "pop_max": 4459000, "region": "South"}}, {"type": "Feature", "geometry": {"type": "Point", "coordinates": [-80.22411, 25.78761]}, "properties": {"name": "Miami", "sov_a3": "USA", "latitude": 25.78761, "longitude": -80.22411, "pop_max": 5585000, "region": "South"}}, {"type": "Feature", "geometry": {"type": "Point", "coordinates": [-84.39995, 33.83001]}, "properties": {"name": "Atlanta", "sov_a3": "USA", "latitude": 33.83001, "longitude": -84.39995, "pop_max": 4506000, "region": "South"}}, {"type": "Feature", "geometry": {"type": "Point", "coordinates": [-87.75005, 41.82999]}, "properties": {"name": "Chicago", "sov_a3": "USA", "latitude": 41.82999, "longitude": -87.75005, "pop_max": 8990000, "region": "Midwest"}}, {"type": "Feature", "geometry": {"type": "Point", "coordinates": [-118.17998, 33.98998]}, "properties": {"name": "Los Angeles", "sov_a3": "USA", "latitude": 33.98998, "longitude": -118.17998, "pop_max": 12500000, "region": "West"}}, {"type": "Feature", "geometry": {"type": "Point", "coordinates": [-77.00942, 38.89955]}, "properties": {"name": "Washington D.C.", "sov_a3": "USA", "latitude": 38.89955, "longitude": -77.00942, "pop_max": 4338000, "region": "South"}}, {"type": "Feature", "geometry": {"type": "Point", "coordinates": [-73.98002, 40.74998]}, "properties": {"name": "New York", "sov_a3": "USA", "latitude": 40.74998, "longitude": -73.98002, "pop_max": 19040000, "region": "Northeast"}}]}